{"type": "FeatureCollection", "features": [{"type":"Feature","geometry":{"type":"Point","coordinates":[-3.666807,40.480133]},"properties":{"cartodb_id":1,"place":1,"id":1,"name":"Pinar de Chamartín","line":"L1","lat":40.4801329175,"lng":-3.6668070437}},{"type":"Feature","geometry":{"type":"Point","coordinates":[-3.676377,40.476807]},"properties":{"cartodb_id":2,"place":2,"id":2,"name":"Bambú","line":"L1","lat":40.4768070559,"lng":-3.6763772762}},{"type":"Feature","geometry":{"type":"Point","coordinates":[-3.698258,40.460551]},"properties":{"cartodb_id":6,"place":6,"id":6,"name":"Tetuán","line":"L1","lat":40.4605508884,"lng":-3.6982583416}},{"type":"Feature","geometry":{"type":"Point","coordinates":[-3.703978,40.446967]},"properties":{"cartodb_id":9,"place":9,"id":9,"name":"Cuatro Caminos","line":"L1","lat":40.446966678,"lng":-3.7039784767}},{"type":"Feature","geometry":{"type":"Point","coordinates":[-3.704666,40.412341]},"properties":{"cartodb_id":16,"place":16,"id":16,"name":"Tirso de Molina","line":"L1","lat":40.4123408132,"lng":-3.7046664746}},{"type":"Feature","geometry":{"type":"Point","coordinates":[-3.669062,40.398192]},"properties":{"cartodb_id":22,"place":22,"id":22,"name":"Puente de Vallecas","line":"L1","lat":40.3981918732,"lng":-3.6690617034}},{"type":"Feature","geometry":{"type":"Point","coordinates":[-3.664145,40.395536]},"properties":{"cartodb_id":23,"place":23,"id":23,"name":"Nueva Numancia","line":"L1","lat":40.3955355088,"lng":-3.6641453518}},{"type":"Feature","geometry":{"type":"Point","coordinates":[-3.658685,40.392657]},"properties":{"cartodb_id":24,"place":24,"id":24,"name":"Portazgo","line":"L1","lat":40.3926568048,"lng":-3.6586852115}},{"type":"Feature","geometry":{"type":"Point","coordinates":[-3.653914,40.391558]},"properties":{"cartodb_id":25,"place":25,"id":25,"name":"Buenos Aires","line":"L1","lat":40.391557746,"lng":-3.65391434}},{"type":"Feature","geometry":{"type":"Point","coordinates":[-3.603313,40.423743]},"properties":{"cartodb_id":34,"place":1,"id":34,"name":"Las Rosas","line":"L2","lat":40.4237430104,"lng":-3.6033126554}},{"type":"Feature","geometry":{"type":"Point","coordinates":[-3.612071,40.422391]},"properties":{"cartodb_id":35,"place":2,"id":35,"name":"Avenida de Guadalajara","line":"L2","lat":40.4223906617,"lng":-3.6120708285}},{"type":"Feature","geometry":{"type":"Point","coordinates":[-3.623514,40.418284]},"properties":{"cartodb_id":36,"place":3,"id":36,"name":"Alsacia","line":"L2","lat":40.4182844439,"lng":-3.6235144028}},{"type":"Feature","geometry":{"type":"Point","coordinates":[-3.650528,40.426613]},"properties":{"cartodb_id":38,"place":5,"id":38,"name":"La Elipa","line":"L2","lat":40.426613118,"lng":-3.6505284973}},{"type":"Feature","geometry":{"type":"Point","coordinates":[-3.699257,40.418049]},"properties":{"cartodb_id":45,"place":12,"id":45,"name":"Sevilla","line":"L2","lat":40.4180493564,"lng":-3.6992567779}},{"type":"Feature","geometry":{"type":"Point","coordinates":[-3.707966,40.421312]},"properties":{"cartodb_id":48,"place":15,"id":48,"name":"Santo Domingo","line":"L2","lat":40.4213116773,"lng":-3.7079663428}},{"type":"Feature","geometry":{"type":"Point","coordinates":[-3.704342,40.433217]},"properties":{"cartodb_id":51,"place":18,"id":51,"name":"Quevedo","line":"L2","lat":40.4332167197,"lng":-3.7043420216}},{"type":"Feature","geometry":{"type":"Point","coordinates":[-3.703931,40.446967]},"properties":{"cartodb_id":53,"place":20,"id":53,"name":"Cuatro Caminos","line":"L2","lat":40.4469669652,"lng":-3.7039313107}},{"type":"Feature","geometry":{"type":"Point","coordinates":[-3.715975,40.430659]},"properties":{"cartodb_id":55,"place":2,"id":55,"name":"Argüelles","line":"L3","lat":40.4306587707,"lng":-3.7159750318}},{"type":"Feature","geometry":{"type":"Point","coordinates":[-3.713414,40.42708]},"properties":{"cartodb_id":56,"place":3,"id":56,"name":"Ventura Rodríguez","line":"L3","lat":40.4270800022,"lng":-3.7134142862}},{"type":"Feature","geometry":{"type":"Point","coordinates":[-3.700914,40.408508]},"properties":{"cartodb_id":60,"place":7,"id":60,"name":"Lavapiés","line":"L3","lat":40.4085077475,"lng":-3.7009140559}},{"type":"Feature","geometry":{"type":"Point","coordinates":[-3.599111,40.363574]},"properties":{"cartodb_id":32,"place":32,"id":32,"name":"Las Suertes","line":"L1","lat":40.3632214581,"lng":-3.5995338882}},{"type":"Feature","geometry":{"type":"Point","coordinates":[-3.613451,40.369644]},"properties":{"cartodb_id":31,"place":31,"id":31,"name":"La Gavia","line":"L1","lat":40.3701845119,"lng":-3.6134711039}},{"type":"Feature","geometry":{"type":"Point","coordinates":[-3.618922,40.372358]},"properties":{"cartodb_id":30,"place":30,"id":30,"name":"Congosto","line":"L1","lat":40.3723811075,"lng":-3.6188505841}},{"type":"Feature","geometry":{"type":"Point","coordinates":[-3.621535,40.37953]},"properties":{"cartodb_id":29,"place":29,"id":29,"name":"Villa de Vallecas","line":"L1","lat":40.379593253,"lng":-3.6213080159}},{"type":"Feature","geometry":{"type":"Point","coordinates":[-3.625939,40.381271]},"properties":{"cartodb_id":28,"place":28,"id":28,"name":"Sierra de Guadalupe","line":"L1","lat":40.3821604645,"lng":-3.6247245167}},{"type":"Feature","geometry":{"type":"Point","coordinates":[-3.639629,40.387187]},"properties":{"cartodb_id":27,"place":27,"id":27,"name":"Miguel Hernández","line":"L1","lat":40.3873139298,"lng":-3.6395112254}},{"type":"Feature","geometry":{"type":"Point","coordinates":[-3.645272,40.389688]},"properties":{"cartodb_id":26,"place":26,"id":26,"name":"Alto del Arenal","line":"L1","lat":40.3897687004,"lng":-3.6452252836}},{"type":"Feature","geometry":{"type":"Point","coordinates":[-3.67497,40.401372]},"properties":{"cartodb_id":21,"place":21,"id":21,"name":"Pacífico","line":"L1","lat":40.4012556807,"lng":-3.6751373637}},{"type":"Feature","geometry":{"type":"Point","coordinates":[-3.681042,40.404297]},"properties":{"cartodb_id":20,"place":20,"id":20,"name":"Menéndez Pelayo","line":"L1","lat":40.4044466012,"lng":-3.6809909455}},{"type":"Feature","geometry":{"type":"Point","coordinates":[-3.689175,40.406765]},"properties":{"cartodb_id":19,"place":19,"id":19,"name":"Atocha Renfe","line":"L1","lat":40.4065860907,"lng":-3.6893799937}},{"type":"Feature","geometry":{"type":"Point","coordinates":[-3.69235,40.409003]},"properties":{"cartodb_id":18,"place":18,"id":18,"name":"Atocha","line":"L1","lat":40.408846793,"lng":-3.6924908836}},{"type":"Feature","geometry":{"type":"Point","coordinates":[-3.699367,40.41232]},"properties":{"cartodb_id":17,"place":17,"id":17,"name":"Antón Martín","line":"L1","lat":40.4124630282,"lng":-3.6993757417}},{"type":"Feature","geometry":{"type":"Point","coordinates":[-3.701277,40.426303]},"properties":{"cartodb_id":13,"place":13,"id":13,"name":"Tribunal","line":"L1","lat":40.426182305,"lng":-3.7011092895}},{"type":"Feature","geometry":{"type":"Point","coordinates":[-3.702028,40.428982]},"properties":{"cartodb_id":12,"place":12,"id":12,"name":"Bilbao","line":"L1","lat":40.4290496358,"lng":-3.7021882959}},{"type":"Feature","geometry":{"type":"Point","coordinates":[-3.701813,40.441934]},"properties":{"cartodb_id":10,"place":10,"id":10,"name":"Ríos Rosas","line":"L1","lat":40.4419737585,"lng":-3.7013322873}},{"type":"Feature","geometry":{"type":"Point","coordinates":[-3.703423,40.450327]},"properties":{"cartodb_id":8,"place":8,"id":8,"name":"Alvarado","line":"L1","lat":40.4503310541,"lng":-3.7033178071}},{"type":"Feature","geometry":{"type":"Point","coordinates":[-3.70295,40.454246]},"properties":{"cartodb_id":7,"place":7,"id":7,"name":"Estrecho","line":"L1","lat":40.4542787492,"lng":-3.7030287494}},{"type":"Feature","geometry":{"type":"Point","coordinates":[-3.695161,40.464499]},"properties":{"cartodb_id":5,"place":5,"id":5,"name":"Valdeacederas","line":"L1","lat":40.4644169583,"lng":-3.6950664665}},{"type":"Feature","geometry":{"type":"Point","coordinates":[-3.638878,40.423821]},"properties":{"cartodb_id":37,"place":4,"id":37,"name":"La Almudena","line":"L2","lat":40.4236135202,"lng":-3.6391475842}},{"type":"Feature","geometry":{"type":"Point","coordinates":[-3.675785,40.424899]},"properties":{"cartodb_id":41,"place":8,"id":41,"name":"Goya","line":"L2","lat":40.4245395651,"lng":-3.675912376}},{"type":"Feature","geometry":{"type":"Point","coordinates":[-3.686213,40.420521]},"properties":{"cartodb_id":43,"place":10,"id":43,"name":"Retiro","line":"L2","lat":40.4202984424,"lng":-3.6862547889}},{"type":"Feature","geometry":{"type":"Point","coordinates":[-3.70368,40.416992]},"properties":{"cartodb_id":59,"place":6,"id":59,"name":"Sol","line":"L3","lat":40.4168088345,"lng":-3.7032632907}},{"type":"Feature","geometry":{"type":"Point","coordinates":[-3.703637,40.416992]},"properties":{"cartodb_id":46,"place":13,"id":46,"name":"Sol","line":"L2","lat":40.4168718938,"lng":-3.7032639472}},{"type":"Feature","geometry":{"type":"Point","coordinates":[-3.703551,40.416992]},"properties":{"cartodb_id":15,"place":15,"id":15,"name":"Sol","line":"L1","lat":40.4168718938,"lng":-3.7032639472}},{"type":"Feature","geometry":{"type":"Point","coordinates":[-3.705611,40.429636]},"properties":{"cartodb_id":50,"place":17,"id":50,"name":"San Bernardo","line":"L2","lat":40.4300109577,"lng":-3.7055818156}},{"type":"Feature","geometry":{"type":"Point","coordinates":[-3.704324,40.438684]},"properties":{"cartodb_id":52,"place":19,"id":52,"name":"Canal","line":"L2","lat":40.4384059405,"lng":-3.704337221}},{"type":"Feature","geometry":{"type":"Point","coordinates":[-3.706158,40.420292]},"properties":{"cartodb_id":58,"place":5,"id":58,"name":"Callao","line":"L3","lat":40.420127532,"lng":-3.7056671454}},{"type":"Feature","geometry":{"type":"Point","coordinates":[-3.710954,40.423592]},"properties":{"cartodb_id":57,"place":4,"id":57,"name":"Plaza de España","line":"L3","lat":40.4234089131,"lng":-3.7112064863}},{"type":"Feature","geometry":{"type":"Point","coordinates":[-3.718915,40.434993]},"properties":{"cartodb_id":54,"place":1,"id":54,"name":"Moncloa","line":"L3","lat":40.4350155641,"lng":-3.7194521745}},{"type":"Feature","geometry":{"type":"Point","coordinates":[-3.663222,40.430795]},"properties":{"cartodb_id":39,"place":6,"id":39,"name":"Ventas","line":"L2","lat":40.4308807941,"lng":-3.6636676898}},{"type":"Feature","geometry":{"type":"Point","coordinates":[-3.66879,40.428117]},"properties":{"cartodb_id":40,"place":7,"id":40,"name":"Manuel Becerra","line":"L2","lat":40.4279025913,"lng":-3.6692617276}},{"type":"Feature","geometry":{"type":"Point","coordinates":[-3.680366,40.422718]},"properties":{"cartodb_id":42,"place":9,"id":42,"name":"Príncipe de Vergara","line":"L2","lat":40.4229382587,"lng":-3.6801282563}},{"type":"Feature","geometry":{"type":"Point","coordinates":[-3.701577,40.420088]},"properties":{"cartodb_id":14,"place":14,"id":14,"name":"Gran Vía","line":"L1","lat":40.4200068574,"lng":-3.7018113638}},{"type":"Feature","geometry":{"type":"Point","coordinates":[-3.70971,40.418405]},"properties":{"cartodb_id":47,"place":14,"id":47,"name":"Ópera","line":"L2","lat":40.4180864824,"lng":-3.7094295067}},{"type":"Feature","geometry":{"type":"Point","coordinates":[-3.689089,40.466686]},"properties":{"cartodb_id":4,"place":4,"id":4,"name":"Plaza de Castilla","line":"L1","lat":40.4668936235,"lng":-3.6891823407}},{"type":"Feature","geometry":{"type":"Point","coordinates":[-3.707349,40.424597]},"properties":{"cartodb_id":49,"place":16,"id":49,"name":"Noviciado","line":"L2","lat":40.4248375182,"lng":-3.7074256796}},{"type":"Feature","geometry":{"type":"Point","coordinates":[-3.68263,40.474563]},"properties":{"cartodb_id":3,"place":3,"id":3,"name":"Chamartín","line":"L1","lat":40.4720227902,"lng":-3.6825932781}},{"type":"Feature","geometry":{"type":"Point","coordinates":[-3.694235,40.403071]},"properties":{"cartodb_id":62,"place":9,"id":62,"name":"Palos de la Frontera","line":"L3","lat":40.4030705357,"lng":-3.6942347261}},{"type":"Feature","geometry":{"type":"Point","coordinates":[-3.697892,40.384093]},"properties":{"cartodb_id":65,"place":12,"id":65,"name":"Almendrales","line":"L3","lat":40.3840934126,"lng":-3.6978923295}},{"type":"Feature","geometry":{"type":"Point","coordinates":[-3.715963,40.430596]},"properties":{"cartodb_id":73,"place":1,"id":73,"name":"Argüelles","line":"L4","lat":40.4305957847,"lng":-3.7159625744}},{"type":"Feature","geometry":{"type":"Point","coordinates":[-3.705684,40.429659]},"properties":{"cartodb_id":74,"place":2,"id":74,"name":"San Bernardo","line":"L4","lat":40.4296589807,"lng":-3.7056842399}},{"type":"Feature","geometry":{"type":"Point","coordinates":[-3.701149,40.428849]},"properties":{"cartodb_id":75,"place":3,"id":75,"name":"Bilbao","line":"L4","lat":40.4288487375,"lng":-3.7011487683}},{"type":"Feature","geometry":{"type":"Point","coordinates":[-3.686637,40.425431]},"properties":{"cartodb_id":78,"place":6,"id":78,"name":"Serrano","line":"L4","lat":40.4254313248,"lng":-3.6866370318}},{"type":"Feature","geometry":{"type":"Point","coordinates":[-3.675416,40.429164]},"properties":{"cartodb_id":81,"place":9,"id":81,"name":"Lista","line":"L4","lat":40.4291640991,"lng":-3.6754163729}},{"type":"Feature","geometry":{"type":"Point","coordinates":[-3.667919,40.448244]},"properties":{"cartodb_id":85,"place":13,"id":85,"name":"Alfonso XIII","line":"L4","lat":40.4482437178,"lng":-3.6679186528}},{"type":"Feature","geometry":{"type":"Point","coordinates":[-3.656188,40.455824]},"properties":{"cartodb_id":87,"place":15,"id":87,"name":"Arturo Soria","line":"L4","lat":40.4558244095,"lng":-3.6561881226}},{"type":"Feature","geometry":{"type":"Point","coordinates":[-3.635601,40.463804]},"properties":{"cartodb_id":89,"place":17,"id":89,"name":"Canillas","line":"L4","lat":40.4638042999,"lng":-3.6356005797}},{"type":"Feature","geometry":{"type":"Point","coordinates":[-3.639582,40.474467]},"properties":{"cartodb_id":91,"place":19,"id":91,"name":"San Lorenzo","line":"L4","lat":40.4744669872,"lng":-3.6395823503}},{"type":"Feature","geometry":{"type":"Point","coordinates":[-3.645247,40.477111]},"properties":{"cartodb_id":92,"place":20,"id":92,"name":"Parque de Santa María","line":"L4","lat":40.4771111679,"lng":-3.6452466617}},{"type":"Feature","geometry":{"type":"Point","coordinates":[-3.662905,40.476867]},"properties":{"cartodb_id":94,"place":22,"id":94,"name":"Manoteras","line":"L4","lat":40.4768670928,"lng":-3.6629051587}},{"type":"Feature","geometry":{"type":"Point","coordinates":[-3.666772,40.480133]},"properties":{"cartodb_id":95,"place":23,"id":95,"name":"Pinar de Chamartín","line":"L4","lat":40.4801331217,"lng":-3.6667716516}},{"type":"Feature","geometry":{"type":"Point","coordinates":[-3.608165,40.44942]},"properties":{"cartodb_id":98,"place":3,"id":98,"name":"Canillejas","line":"L5","lat":40.4494203777,"lng":-3.608164957}},{"type":"Feature","geometry":{"type":"Point","coordinates":[-3.697622,40.422924]},"properties":{"cartodb_id":110,"place":15,"id":110,"name":"Chueca","line":"L5","lat":40.4229241156,"lng":-3.6976215653}},{"type":"Feature","geometry":{"type":"Point","coordinates":[-3.706652,40.403869]},"properties":{"cartodb_id":116,"place":21,"id":116,"name":"Acacias","line":"L5","lat":40.4038691909,"lng":-3.7066522311}},{"type":"Feature","geometry":{"type":"Point","coordinates":[-3.675742,40.424931]},"properties":{"cartodb_id":80,"place":8,"id":80,"name":"Goya","line":"L4","lat":40.4248043033,"lng":-3.6768580959}},{"type":"Feature","geometry":{"type":"Point","coordinates":[-3.694367,40.342161]},"properties":{"cartodb_id":70,"place":17,"id":70,"name":"San Cristóbal","line":"L3","lat":40.3415355359,"lng":-3.693191433}},{"type":"Feature","geometry":{"type":"Point","coordinates":[-3.69308,40.350894]},"properties":{"cartodb_id":69,"place":16,"id":69,"name":"Villaverde Bajo-Cruce","line":"L3","lat":40.3508902739,"lng":-3.6926513322}},{"type":"Feature","geometry":{"type":"Point","coordinates":[-3.693423,40.359593]},"properties":{"cartodb_id":68,"place":15,"id":68,"name":"Ciudad de los Ángeles","line":"L3","lat":40.3595781975,"lng":-3.6936352911}},{"type":"Feature","geometry":{"type":"Point","coordinates":[-3.69441,40.369991]},"properties":{"cartodb_id":67,"place":14,"id":67,"name":"San Fermín-Orcasur","line":"L3","lat":40.3699894914,"lng":-3.6941778391}},{"type":"Feature","geometry":{"type":"Point","coordinates":[-3.69514,40.375026]},"properties":{"cartodb_id":66,"place":13,"id":66,"name":"Hospital 12 de Octubre","line":"L3","lat":40.3750245146,"lng":-3.695855105}},{"type":"Feature","geometry":{"type":"Point","coordinates":[-3.695151,40.391371]},"properties":{"cartodb_id":64,"place":11,"id":64,"name":"Legazpi","line":"L3","lat":40.3911461768,"lng":-3.6951255514}},{"type":"Feature","geometry":{"type":"Point","coordinates":[-3.694035,40.399885]},"properties":{"cartodb_id":63,"place":10,"id":63,"name":"Delicias","line":"L3","lat":40.399899539,"lng":-3.6942021512}},{"type":"Feature","geometry":{"type":"Point","coordinates":[-3.706148,40.4203]},"properties":{"cartodb_id":112,"place":17,"id":112,"name":"Callao","line":"L5","lat":40.4200824897,"lng":-3.7056666747}},{"type":"Feature","geometry":{"type":"Point","coordinates":[-3.695698,40.427725]},"properties":{"cartodb_id":109,"place":14,"id":109,"name":"Alonso Martínez","line":"L5","lat":40.4282821138,"lng":-3.6950244073}},{"type":"Feature","geometry":{"type":"Point","coordinates":[-3.695612,40.427741]},"properties":{"cartodb_id":76,"place":4,"id":76,"name":"Alonso Martínez","line":"L4","lat":40.4277179863,"lng":-3.6959499211}},{"type":"Feature","geometry":{"type":"Point","coordinates":[-3.690977,40.425585]},"properties":{"cartodb_id":77,"place":5,"id":77,"name":"Colón","line":"L4","lat":40.4254142769,"lng":-3.6910103826}},{"type":"Feature","geometry":{"type":"Point","coordinates":[-3.68293,40.42516]},"properties":{"cartodb_id":79,"place":7,"id":79,"name":"Velázquez","line":"L4","lat":40.4250299189,"lng":-3.6829196009}},{"type":"Feature","geometry":{"type":"Point","coordinates":[-3.678296,40.437557]},"properties":{"cartodb_id":83,"place":11,"id":83,"name":"Avenida de América","line":"L4","lat":40.4380307819,"lng":-3.6766487942}},{"type":"Feature","geometry":{"type":"Point","coordinates":[-3.674476,40.443926]},"properties":{"cartodb_id":84,"place":12,"id":84,"name":"Prosperidad","line":"L4","lat":40.4441855968,"lng":-3.6748238288}},{"type":"Feature","geometry":{"type":"Point","coordinates":[-3.661344,40.453707]},"properties":{"cartodb_id":86,"place":14,"id":86,"name":"Avenida de la Paz","line":"L4","lat":40.4535346496,"lng":-3.661189836}},{"type":"Feature","geometry":{"type":"Point","coordinates":[-3.645916,40.458997]},"properties":{"cartodb_id":88,"place":16,"id":88,"name":"Esperanza","line":"L4","lat":40.4594413519,"lng":-3.6458206213}},{"type":"Feature","geometry":{"type":"Point","coordinates":[-3.638084,40.469282]},"properties":{"cartodb_id":90,"place":18,"id":90,"name":"Mar de Cristal","line":"L4","lat":40.4694198676,"lng":-3.6383312545}},{"type":"Feature","geometry":{"type":"Point","coordinates":[-3.65216,40.474538]},"properties":{"cartodb_id":93,"place":21,"id":93,"name":"Hortaleza","line":"L4","lat":40.4753673027,"lng":-3.6525796375}},{"type":"Feature","geometry":{"type":"Point","coordinates":[-3.587948,40.457193]},"properties":{"cartodb_id":96,"place":1,"id":96,"name":"Alameda de Osuna","line":"L5","lat":40.4577883688,"lng":-3.5875298514}},{"type":"Feature","geometry":{"type":"Point","coordinates":[-3.59386,40.453389]},"properties":{"cartodb_id":97,"place":2,"id":97,"name":"El Capricho","line":"L5","lat":40.4534669389,"lng":-3.5940139675}},{"type":"Feature","geometry":{"type":"Point","coordinates":[-3.616948,40.443657]},"properties":{"cartodb_id":99,"place":4,"id":99,"name":"Torre Arias","line":"L5","lat":40.4437428943,"lng":-3.6170047299}},{"type":"Feature","geometry":{"type":"Point","coordinates":[-3.626915,40.44097]},"properties":{"cartodb_id":100,"place":5,"id":100,"name":"Suanzes","line":"L5","lat":40.4408430887,"lng":-3.6268474471}},{"type":"Feature","geometry":{"type":"Point","coordinates":[-3.638084,40.437916]},"properties":{"cartodb_id":101,"place":6,"id":101,"name":"Ciudad Lineal","line":"L5","lat":40.4380424266,"lng":-3.6381640898}},{"type":"Feature","geometry":{"type":"Point","coordinates":[-3.647321,40.433539]},"properties":{"cartodb_id":103,"place":8,"id":103,"name":"Quintana","line":"L5","lat":40.4335768433,"lng":-3.6473651661}},{"type":"Feature","geometry":{"type":"Point","coordinates":[-3.657525,40.431792]},"properties":{"cartodb_id":104,"place":9,"id":104,"name":"El Carmen","line":"L5","lat":40.4318885435,"lng":-3.6575823654}},{"type":"Feature","geometry":{"type":"Point","coordinates":[-3.679487,40.432633]},"properties":{"cartodb_id":107,"place":12,"id":107,"name":"Núñez de Balboa","line":"L5","lat":40.4327796588,"lng":-3.6825853553}},{"type":"Feature","geometry":{"type":"Point","coordinates":[-3.689518,40.433074]},"properties":{"cartodb_id":108,"place":13,"id":108,"name":"Rubén Darío","line":"L5","lat":40.4331527711,"lng":-3.6895451264}},{"type":"Feature","geometry":{"type":"Point","coordinates":[-3.701588,40.420104]},"properties":{"cartodb_id":111,"place":16,"id":111,"name":"Gran Vía","line":"L5","lat":40.419979832,"lng":-3.701811083}},{"type":"Feature","geometry":{"type":"Point","coordinates":[-3.709688,40.418397]},"properties":{"cartodb_id":113,"place":18,"id":113,"name":"Ópera","line":"L5","lat":40.4180869163,"lng":-3.7093587881}},{"type":"Feature","geometry":{"type":"Point","coordinates":[-3.70839,40.411315]},"properties":{"cartodb_id":114,"place":19,"id":114,"name":"La Latina","line":"L5","lat":40.4112743723,"lng":-3.7081675783}},{"type":"Feature","geometry":{"type":"Point","coordinates":[-3.711362,40.407042]},"properties":{"cartodb_id":115,"place":20,"id":115,"name":"Puerta de Toledo","line":"L5","lat":40.4070313893,"lng":-3.7110576338}},{"type":"Feature","geometry":{"type":"Point","coordinates":[-3.711094,40.402565]},"properties":{"cartodb_id":117,"place":22,"id":117,"name":"Pirámides","line":"L5","lat":40.4025968999,"lng":-3.7113880738}},{"type":"Feature","geometry":{"type":"Point","coordinates":[-3.715975,40.397524]},"properties":{"cartodb_id":118,"place":23,"id":118,"name":"Marqués de Vadillo","line":"L5","lat":40.3973524086,"lng":-3.7159638132}},{"type":"Feature","geometry":{"type":"Point","coordinates":[-3.723668,40.393398]},"properties":{"cartodb_id":119,"place":24,"id":119,"name":"Urgel","line":"L5","lat":40.3933497945,"lng":-3.7236156304}},{"type":"Feature","geometry":{"type":"Point","coordinates":[-3.73297,40.3891]},"properties":{"cartodb_id":120,"place":25,"id":120,"name":"Oporto","line":"L5","lat":40.3884634031,"lng":-3.7313276759}},{"type":"Feature","geometry":{"type":"Point","coordinates":[-3.644071,40.435042]},"properties":{"cartodb_id":102,"place":7,"id":102,"name":"Pueblo Nuevo","line":"L5","lat":40.4356922212,"lng":-3.6428344036}},{"type":"Feature","geometry":{"type":"Point","coordinates":[-3.67836,40.444261]},"properties":{"cartodb_id":204,"place":11,"id":204,"name":"Cruz del Rayo","line":"L9","lat":40.4442648166,"lng":-3.6782206517}},{"type":"Feature","geometry":{"type":"Point","coordinates":[-3.67424,40.433539]},"properties":{"cartodb_id":82,"place":10,"id":82,"name":"Diego de León","line":"L4","lat":40.4346712542,"lng":-3.6749645017}},{"type":"Feature","geometry":{"type":"Point","coordinates":[-3.674176,40.433458]},"properties":{"cartodb_id":106,"place":11,"id":106,"name":"Diego de León                 ","line":"L5","lat":40.4323509825,"lng":-3.6742692889}},{"type":"Feature","geometry":{"type":"Point","coordinates":[-3.739827,40.388842]},"properties":{"cartodb_id":121,"place":26,"id":121,"name":"Vista Alegre","line":"L5","lat":40.3888417745,"lng":-3.7398266451}},{"type":"Feature","geometry":{"type":"Point","coordinates":[-3.765354,40.390568]},"properties":{"cartodb_id":125,"place":30,"id":125,"name":"Empalme","line":"L5","lat":40.3905675329,"lng":-3.7653543591}},{"type":"Feature","geometry":{"type":"Point","coordinates":[-3.7443,40.399228]},"properties":{"cartodb_id":128,"place":1,"id":128,"name":"Laguna","line":"L6","lat":40.3992275435,"lng":-3.7443003612}},{"type":"Feature","geometry":{"type":"Point","coordinates":[-3.723134,40.386902]},"properties":{"cartodb_id":131,"place":4,"id":131,"name":"Opañel","line":"L6","lat":40.3869023066,"lng":-3.723134262}},{"type":"Feature","geometry":{"type":"Point","coordinates":[-3.688641,40.393095]},"properties":{"cartodb_id":135,"place":8,"id":135,"name":"Arganzuela-Planetario","line":"L6","lat":40.3930949,"lng":-3.6886414651}},{"type":"Feature","geometry":{"type":"Point","coordinates":[-3.684065,40.443789]},"properties":{"cartodb_id":144,"place":17,"id":144,"name":"República Argentina","line":"L6","lat":40.4437889415,"lng":-3.6840645457}},{"type":"Feature","geometry":{"type":"Point","coordinates":[-3.703872,40.446967]},"properties":{"cartodb_id":146,"place":19,"id":146,"name":"Cuatro Caminos","line":"L6","lat":40.4469673242,"lng":-3.7038723533}},{"type":"Feature","geometry":{"type":"Point","coordinates":[-3.712297,40.446357]},"properties":{"cartodb_id":147,"place":20,"id":147,"name":"Guzmán el Bueno","line":"L6","lat":40.4463571596,"lng":-3.7122973579}},{"type":"Feature","geometry":{"type":"Point","coordinates":[-3.715962,40.430524]},"properties":{"cartodb_id":151,"place":24,"id":151,"name":"Argüelles","line":"L6","lat":40.4305237173,"lng":-3.7159618101}},{"type":"Feature","geometry":{"type":"Point","coordinates":[-3.727242,40.413895]},"properties":{"cartodb_id":153,"place":26,"id":153,"name":"Puerta del Ángel","line":"L6","lat":40.4138947174,"lng":-3.7272419556}},{"type":"Feature","geometry":{"type":"Point","coordinates":[-3.534539,40.417604]},"properties":{"cartodb_id":156,"place":1,"id":156,"name":"Hospital del Henares","line":"L7","lat":40.4176039109,"lng":-3.5345387004}},{"type":"Feature","geometry":{"type":"Point","coordinates":[-3.527185,40.417764]},"properties":{"cartodb_id":157,"place":2,"id":157,"name":"Henares","line":"L7","lat":40.4177638038,"lng":-3.527184756}},{"type":"Feature","geometry":{"type":"Point","coordinates":[-3.607887,40.43298]},"properties":{"cartodb_id":164,"place":9,"id":164,"name":"Las Musas","line":"L7","lat":40.4329803546,"lng":-3.6078871301}},{"type":"Feature","geometry":{"type":"Point","coordinates":[-3.61547,40.427985]},"properties":{"cartodb_id":165,"place":10,"id":165,"name":"San Blas","line":"L7","lat":40.4279852598,"lng":-3.6154696063}},{"type":"Feature","geometry":{"type":"Point","coordinates":[-3.652005,40.439091]},"properties":{"cartodb_id":170,"place":15,"id":170,"name":"Barrio de la Concepción","line":"L7","lat":40.4390913221,"lng":-3.6520047109}},{"type":"Feature","geometry":{"type":"Point","coordinates":[-3.699255,40.438374]},"properties":{"cartodb_id":175,"place":20,"id":175,"name":"Alonso Cano","line":"L7","lat":40.4383737299,"lng":-3.6992550788}},{"type":"Feature","geometry":{"type":"Point","coordinates":[-3.712297,40.446321]},"properties":{"cartodb_id":178,"place":23,"id":178,"name":"Guzmán el Bueno","line":"L7","lat":40.446321126,"lng":-3.7122969775}},{"type":"Feature","geometry":{"type":"Point","coordinates":[-3.704281,40.438684]},"properties":{"cartodb_id":176,"place":21,"id":176,"name":"Canal","line":"L7","lat":40.4386998413,"lng":-3.7048944553}},{"type":"Feature","geometry":{"type":"Point","coordinates":[-3.69514,40.391339]},"properties":{"cartodb_id":134,"place":7,"id":134,"name":"Legazpi","line":"L6","lat":40.3911556103,"lng":-3.6950549534}},{"type":"Feature","geometry":{"type":"Point","coordinates":[-3.678253,40.43759]},"properties":{"cartodb_id":173,"place":18,"id":173,"name":"Avenida de América","line":"L7","lat":40.4380314719,"lng":-3.6765308943}},{"type":"Feature","geometry":{"type":"Point","coordinates":[-3.678317,40.43759]},"properties":{"cartodb_id":143,"place":16,"id":143,"name":"Avenida de América","line":"L6","lat":40.4380311269,"lng":-3.6765898442}},{"type":"Feature","geometry":{"type":"Point","coordinates":[-3.668801,40.428125]},"properties":{"cartodb_id":141,"place":14,"id":141,"name":"Manuel Becerra","line":"L6","lat":40.4279028642,"lng":-3.6692145746}},{"type":"Feature","geometry":{"type":"Point","coordinates":[-3.73297,40.389075]},"properties":{"cartodb_id":130,"place":3,"id":130,"name":"Oporto","line":"L6","lat":40.3884637756,"lng":-3.7312687699}},{"type":"Feature","geometry":{"type":"Point","coordinates":[-3.744943,40.38789]},"properties":{"cartodb_id":122,"place":27,"id":122,"name":"Carabanchel","line":"L5","lat":40.3878183239,"lng":-3.7448816604}},{"type":"Feature","geometry":{"type":"Point","coordinates":[-3.751069,40.384245]},"properties":{"cartodb_id":123,"place":28,"id":123,"name":"Eugenia de Montijo","line":"L5","lat":40.3843809158,"lng":-3.7512174724}},{"type":"Feature","geometry":{"type":"Point","coordinates":[-3.760575,40.385716]},"properties":{"cartodb_id":124,"place":29,"id":124,"name":"Aluche","line":"L5","lat":40.385624519,"lng":-3.760809653}},{"type":"Feature","geometry":{"type":"Point","coordinates":[-3.768343,40.394738]},"properties":{"cartodb_id":126,"place":31,"id":126,"name":"Campamento","line":"L5","lat":40.3948013639,"lng":-3.7681359753}},{"type":"Feature","geometry":{"type":"Point","coordinates":[-3.761863,40.402892]},"properties":{"cartodb_id":127,"place":32,"id":127,"name":"Casa de Campo","line":"L5","lat":40.4032358456,"lng":-3.7610196867}},{"type":"Feature","geometry":{"type":"Point","coordinates":[-3.525109,40.423069]},"properties":{"cartodb_id":158,"place":3,"id":158,"name":"Jarama","line":"L7","lat":40.4229516786,"lng":-3.5255041919}},{"type":"Feature","geometry":{"type":"Point","coordinates":[-3.535323,40.424164]},"properties":{"cartodb_id":159,"place":4,"id":159,"name":"San Fernando","line":"L7","lat":40.4244107094,"lng":-3.5354177651}},{"type":"Feature","geometry":{"type":"Point","coordinates":[-3.54779,40.425291]},"properties":{"cartodb_id":160,"place":5,"id":160,"name":"La Rambla","line":"L7","lat":40.4251448801,"lng":-3.5479311641}},{"type":"Feature","geometry":{"type":"Point","coordinates":[-3.568926,40.422955]},"properties":{"cartodb_id":162,"place":7,"id":162,"name":"Barrio del Puerto","line":"L7","lat":40.4224925625,"lng":-3.5691987921}},{"type":"Feature","geometry":{"type":"Point","coordinates":[-3.561287,40.423723]},"properties":{"cartodb_id":161,"place":6,"id":161,"name":"Coslada Central","line":"L7","lat":40.4237299053,"lng":-3.5611932284}},{"type":"Feature","geometry":{"type":"Point","coordinates":[-3.60064,40.432919]},"properties":{"cartodb_id":163,"place":8,"id":163,"name":"Estadio Olímpico","line":"L7","lat":40.4333901154,"lng":-3.600156646}},{"type":"Feature","geometry":{"type":"Point","coordinates":[-3.625574,40.428215]},"properties":{"cartodb_id":166,"place":11,"id":166,"name":"Simancas","line":"L7","lat":40.4279842578,"lng":-3.6257259832}},{"type":"Feature","geometry":{"type":"Point","coordinates":[-3.633428,40.428558]},"properties":{"cartodb_id":167,"place":12,"id":167,"name":"García Noblejas","line":"L7","lat":40.428420439,"lng":-3.6333103672}},{"type":"Feature","geometry":{"type":"Point","coordinates":[-3.641281,40.430093]},"properties":{"cartodb_id":168,"place":13,"id":168,"name":"Ascao","line":"L7","lat":40.4301975486,"lng":-3.6410608383}},{"type":"Feature","geometry":{"type":"Point","coordinates":[-3.644114,40.435075]},"properties":{"cartodb_id":169,"place":14,"id":169,"name":"Pueblo Nuevo","line":"L7","lat":40.435656187,"lng":-3.6428340604}},{"type":"Feature","geometry":{"type":"Point","coordinates":[-3.663039,40.439615]},"properties":{"cartodb_id":171,"place":16,"id":171,"name":"Parque de las Avenidas","line":"L7","lat":40.4394433512,"lng":-3.6629736837}},{"type":"Feature","geometry":{"type":"Point","coordinates":[-3.672159,40.439239]},"properties":{"cartodb_id":172,"place":17,"id":172,"name":"Cartagena","line":"L7","lat":40.4393362622,"lng":-3.6721577545}},{"type":"Feature","geometry":{"type":"Point","coordinates":[-3.691278,40.43808]},"properties":{"cartodb_id":174,"place":19,"id":174,"name":"Gregorio Marañón","line":"L7","lat":40.4382492342,"lng":-3.691495499}},{"type":"Feature","geometry":{"type":"Point","coordinates":[-3.712134,40.439239]},"properties":{"cartodb_id":177,"place":22,"id":177,"name":"Islas Filipinas","line":"L7","lat":40.4390599723,"lng":-3.7137413543}},{"type":"Feature","geometry":{"type":"Point","coordinates":[-3.71222,40.456401]},"properties":{"cartodb_id":179,"place":24,"id":179,"name":"Francos Rodríguez","line":"L7","lat":40.4564736658,"lng":-3.7123923922}},{"type":"Feature","geometry":{"type":"Point","coordinates":[-3.691106,40.446294]},"properties":{"cartodb_id":145,"place":18,"id":145,"name":"Nuevos Ministerios","line":"L6","lat":40.4466130767,"lng":-3.6924184561}},{"type":"Feature","geometry":{"type":"Point","coordinates":[-3.669391,40.416453]},"properties":{"cartodb_id":139,"place":12,"id":139,"name":"Sainz de Baranda","line":"L6","lat":40.4150631858,"lng":-3.6695234556}},{"type":"Feature","geometry":{"type":"Point","coordinates":[-3.71767,40.385439]},"properties":{"cartodb_id":132,"place":5,"id":132,"name":"Plaza Elíptica","line":"L6","lat":40.3845986271,"lng":-3.7183735257}},{"type":"Feature","geometry":{"type":"Point","coordinates":[-3.70707,40.387187]},"properties":{"cartodb_id":133,"place":6,"id":133,"name":"Usera","line":"L6","lat":40.387092774,"lng":-3.7069010073}},{"type":"Feature","geometry":{"type":"Point","coordinates":[-3.67866,40.395882]},"properties":{"cartodb_id":136,"place":9,"id":136,"name":"Méndez Álvaro","line":"L6","lat":40.3953731861,"lng":-3.6781422464}},{"type":"Feature","geometry":{"type":"Point","coordinates":[-3.674884,40.401356]},"properties":{"cartodb_id":137,"place":10,"id":137,"name":"Pacífico","line":"L6","lat":40.4020649342,"lng":-3.6738609483}},{"type":"Feature","geometry":{"type":"Point","coordinates":[-3.670228,40.406863]},"properties":{"cartodb_id":138,"place":11,"id":138,"name":"Conde de Casal","line":"L6","lat":40.4069679136,"lng":-3.6704096225}},{"type":"Feature","geometry":{"type":"Point","coordinates":[-3.668854,40.422889]},"properties":{"cartodb_id":140,"place":13,"id":140,"name":"O'Donnell","line":"L6","lat":40.4228883904,"lng":-3.6685990513}},{"type":"Feature","geometry":{"type":"Point","coordinates":[-3.674176,40.43349]},"properties":{"cartodb_id":142,"place":15,"id":142,"name":"Diego de León","line":"L6","lat":40.4329442974,"lng":-3.6729429683}},{"type":"Feature","geometry":{"type":"Point","coordinates":[-3.71943,40.446588]},"properties":{"cartodb_id":148,"place":21,"id":148,"name":"Metropolitano","line":"L6","lat":40.4464300912,"lng":-3.7194323698}},{"type":"Feature","geometry":{"type":"Point","coordinates":[-3.72694,40.44355]},"properties":{"cartodb_id":149,"place":22,"id":149,"name":"Ciudad Universitaria","line":"L6","lat":40.4435552107,"lng":-3.7267950694}},{"type":"Feature","geometry":{"type":"Point","coordinates":[-3.738763,40.409755]},"properties":{"cartodb_id":154,"place":27,"id":154,"name":"Alto de Extremadura","line":"L6","lat":40.4099196447,"lng":-3.7389377725}},{"type":"Feature","geometry":{"type":"Point","coordinates":[-3.745136,40.405065]},"properties":{"cartodb_id":155,"place":28,"id":155,"name":"Lucero","line":"L6","lat":40.405094728,"lng":-3.7453431335}},{"type":"Feature","geometry":{"type":"Point","coordinates":[-3.740523,40.392859]},"properties":{"cartodb_id":129,"place":2,"id":129,"name":"Carpetana","line":"L6","lat":40.3926991526,"lng":-3.7410000034}},{"type":"Feature","geometry":{"type":"Point","coordinates":[-3.717704,40.470216]},"properties":{"cartodb_id":181,"place":26,"id":181,"name":"Antonio Machado","line":"L7","lat":40.4702155154,"lng":-3.7177043655}},{"type":"Feature","geometry":{"type":"Point","coordinates":[-3.718411,40.480094]},"properties":{"cartodb_id":183,"place":28,"id":183,"name":"Avenida de la Ilustración","line":"L7","lat":40.4800939398,"lng":-3.7184112591}},{"type":"Feature","geometry":{"type":"Point","coordinates":[-3.648675,40.467993]},"properties":{"cartodb_id":188,"place":3,"id":188,"name":"Pinar del Rey","line":"L8","lat":40.4679929173,"lng":-3.6486745748}},{"type":"Feature","geometry":{"type":"Point","coordinates":[-3.61621,40.463891]},"properties":{"cartodb_id":190,"place":5,"id":190,"name":"Campo de las Naciones","line":"L8","lat":40.4638912813,"lng":-3.616210052}},{"type":"Feature","geometry":{"type":"Point","coordinates":[-3.582531,40.475769]},"properties":{"cartodb_id":192,"place":7,"id":192,"name":"Barajas","line":"L8","lat":40.4757686044,"lng":-3.5825311261}},{"type":"Feature","geometry":{"type":"Point","coordinates":[-3.709084,40.499647]},"properties":{"cartodb_id":194,"place":1,"id":194,"name":"Paco de Lucía","line":"L9","lat":40.4996468601,"lng":-3.7090842328}},{"type":"Feature","geometry":{"type":"Point","coordinates":[-3.716357,40.491089]},"properties":{"cartodb_id":195,"place":2,"id":195,"name":"Mirasierra","line":"L9","lat":40.4910885775,"lng":-3.7163573089}},{"type":"Feature","geometry":{"type":"Point","coordinates":[-3.707522,40.484657]},"properties":{"cartodb_id":196,"place":3,"id":196,"name":"Herrera Oria","line":"L9","lat":40.4846565723,"lng":-3.7075223938}},{"type":"Feature","geometry":{"type":"Point","coordinates":[-3.621567,40.400043]},"properties":{"cartodb_id":214,"place":21,"id":214,"name":"Valdebernardo","line":"L9","lat":40.4000425387,"lng":-3.6215666771}},{"type":"Feature","geometry":{"type":"Point","coordinates":[-3.5248,40.341341]},"properties":{"cartodb_id":219,"place":26,"id":219,"name":"Rivas Futura","line":"L9","lat":40.341341035,"lng":-3.524799759}},{"type":"Feature","geometry":{"type":"Point","coordinates":[-3.477453,40.319014]},"properties":{"cartodb_id":221,"place":28,"id":221,"name":"La Poveda","line":"L9","lat":40.3190140657,"lng":-3.4774526354}},{"type":"Feature","geometry":{"type":"Point","coordinates":[-3.611466,40.559762]},"properties":{"cartodb_id":223,"place":1,"id":223,"name":"Hospital Infanta Sofía","line":"L10","lat":40.5597624017,"lng":-3.6114657589}},{"type":"Feature","geometry":{"type":"Point","coordinates":[-3.637393,40.541019]},"properties":{"cartodb_id":227,"place":5,"id":227,"name":"Marqués de la Valdavia","line":"L10","lat":40.5410189794,"lng":-3.6373926147}},{"type":"Feature","geometry":{"type":"Point","coordinates":[-3.669447,40.508325]},"properties":{"cartodb_id":231,"place":9,"id":231,"name":"Las Tablas","line":"L10","lat":40.5083246283,"lng":-3.6694467872}},{"type":"Feature","geometry":{"type":"Point","coordinates":[-3.689862,40.458421]},"properties":{"cartodb_id":238,"place":16,"id":238,"name":"Cuzco","line":"L10","lat":40.4584211292,"lng":-3.6898623797}},{"type":"Feature","geometry":{"type":"Point","coordinates":[-3.678296,40.437573]},"properties":{"cartodb_id":205,"place":12,"id":205,"name":"Avenida de América","line":"L9","lat":40.4380318169,"lng":-3.6764719443}},{"type":"Feature","geometry":{"type":"Point","coordinates":[-3.638105,40.469266]},"properties":{"cartodb_id":189,"place":4,"id":189,"name":"Mar de Cristal","line":"L8","lat":40.4693838336,"lng":-3.6383309133}},{"type":"Feature","geometry":{"type":"Point","coordinates":[-3.680366,40.422718]},"properties":{"cartodb_id":207,"place":14,"id":207,"name":"Príncipe de Vergara","line":"L9","lat":40.4241717998,"lng":-3.6802467751}},{"type":"Feature","geometry":{"type":"Point","coordinates":[-3.679476,40.432641]},"properties":{"cartodb_id":206,"place":13,"id":206,"name":"Núñez de Balboa","line":"L9","lat":40.4301228861,"lng":-3.6793753812}},{"type":"Feature","geometry":{"type":"Point","coordinates":[-3.691278,40.438063]},"properties":{"cartodb_id":241,"place":19,"id":241,"name":"Gregorio Marañón","line":"L10","lat":40.4375298264,"lng":-3.6912758976}},{"type":"Feature","geometry":{"type":"Point","coordinates":[-3.715932,40.465005]},"properties":{"cartodb_id":180,"place":25,"id":180,"name":"Valdezarza","line":"L7","lat":40.4648208101,"lng":-3.7159837954}},{"type":"Feature","geometry":{"type":"Point","coordinates":[-3.715975,40.475926]},"properties":{"cartodb_id":182,"place":27,"id":182,"name":"Peñagrande","line":"L7","lat":40.4759207945,"lng":-3.7158303579}},{"type":"Feature","geometry":{"type":"Point","coordinates":[-3.723249,40.484984]},"properties":{"cartodb_id":184,"place":29,"id":184,"name":"Lacoma","line":"L7","lat":40.4850108965,"lng":-3.7230534485}},{"type":"Feature","geometry":{"type":"Point","coordinates":[-3.725674,40.495232]},"properties":{"cartodb_id":185,"place":30,"id":185,"name":"Pitis","line":"L7","lat":40.4951010671,"lng":-3.7258995068}},{"type":"Feature","geometry":{"type":"Point","coordinates":[-3.592486,40.491283]},"properties":{"cartodb_id":193,"place":8,"id":193,"name":"Aeropuerto T4","line":"L8","lat":40.4917590396,"lng":-3.5932540854}},{"type":"Feature","geometry":{"type":"Point","coordinates":[-3.571436,40.468727]},"properties":{"cartodb_id":191,"place":6,"id":191,"name":"Aeropuerto T1-T2-T3","line":"L8","lat":40.4686441672,"lng":-3.5695410675}},{"type":"Feature","geometry":{"type":"Point","coordinates":[-3.676965,40.457152]},"properties":{"cartodb_id":202,"place":9,"id":202,"name":"Colombia","line":"L9","lat":40.4574884641,"lng":-3.6769501141}},{"type":"Feature","geometry":{"type":"Point","coordinates":[-3.676965,40.457169]},"properties":{"cartodb_id":187,"place":2,"id":187,"name":"Colombia","line":"L8","lat":40.4563360028,"lng":-3.676832402}},{"type":"Feature","geometry":{"type":"Point","coordinates":[-3.691149,40.446278]},"properties":{"cartodb_id":240,"place":18,"id":240,"name":"Nuevos Ministerios","line":"L10","lat":40.4465770429,"lng":-3.6924180863}},{"type":"Feature","geometry":{"type":"Point","coordinates":[-3.691127,40.446294]},"properties":{"cartodb_id":186,"place":1,"id":186,"name":"Nuevos Ministerios","line":"L8","lat":40.4465500176,"lng":-3.6924178089}},{"type":"Feature","geometry":{"type":"Point","coordinates":[-3.703294,40.476791]},"properties":{"cartodb_id":197,"place":4,"id":197,"name":"Barrio del Pilar","line":"L9","lat":40.476881389,"lng":-3.703170083}},{"type":"Feature","geometry":{"type":"Point","coordinates":[-3.695612,40.469592]},"properties":{"cartodb_id":198,"place":5,"id":198,"name":"Ventilla","line":"L9","lat":40.4694300288,"lng":-3.6958849001}},{"type":"Feature","geometry":{"type":"Point","coordinates":[-3.689121,40.466695]},"properties":{"cartodb_id":237,"place":15,"id":237,"name":"Plaza de Castilla","line":"L10","lat":40.4668941861,"lng":-3.6890879806}},{"type":"Feature","geometry":{"type":"Point","coordinates":[-3.679132,40.467413]},"properties":{"cartodb_id":200,"place":7,"id":200,"name":"Duque de Pastrana","line":"L9","lat":40.4676195232,"lng":-3.6791750808}},{"type":"Feature","geometry":{"type":"Point","coordinates":[-3.676214,40.463038]},"properties":{"cartodb_id":201,"place":8,"id":201,"name":"Pío XII","line":"L9","lat":40.4629996694,"lng":-3.6758023434}},{"type":"Feature","geometry":{"type":"Point","coordinates":[-3.677609,40.451438]},"properties":{"cartodb_id":203,"place":10,"id":203,"name":"Concha Espina","line":"L9","lat":40.451440884,"lng":-3.6773847301}},{"type":"Feature","geometry":{"type":"Point","coordinates":[-3.678832,40.418307]},"properties":{"cartodb_id":208,"place":15,"id":208,"name":"Ibiza","line":"L9","lat":40.418388748,"lng":-3.6785854583}},{"type":"Feature","geometry":{"type":"Point","coordinates":[-3.669412,40.416453]},"properties":{"cartodb_id":209,"place":16,"id":209,"name":"Sainz de Baranda","line":"L9","lat":40.4150271517,"lng":-3.6695230984}},{"type":"Feature","geometry":{"type":"Point","coordinates":[-3.661677,40.411642]},"properties":{"cartodb_id":210,"place":17,"id":210,"name":"Estrella","line":"L9","lat":40.411468041,"lng":-3.661791533}},{"type":"Feature","geometry":{"type":"Point","coordinates":[-3.652611,40.410335]},"properties":{"cartodb_id":211,"place":18,"id":211,"name":"Vinateros","line":"L9","lat":40.41024021,"lng":-3.6527397668}},{"type":"Feature","geometry":{"type":"Point","coordinates":[-3.641549,40.405302]},"properties":{"cartodb_id":212,"place":19,"id":212,"name":"Artilleros","line":"L9","lat":40.4052202583,"lng":-3.6418137463}},{"type":"Feature","geometry":{"type":"Point","coordinates":[-3.634994,40.400604]},"properties":{"cartodb_id":213,"place":20,"id":213,"name":"Pavones","line":"L9","lat":40.4005094179,"lng":-3.635122746}},{"type":"Feature","geometry":{"type":"Point","coordinates":[-3.608805,40.404281]},"properties":{"cartodb_id":215,"place":22,"id":215,"name":"Vicálvaro","line":"L9","lat":40.4042092535,"lng":-3.6088656318}},{"type":"Feature","geometry":{"type":"Point","coordinates":[-3.602475,40.403668]},"properties":{"cartodb_id":216,"place":23,"id":216,"name":"San Cipriano","line":"L9","lat":40.4038106624,"lng":-3.602404005}},{"type":"Feature","geometry":{"type":"Point","coordinates":[-3.596295,40.40107]},"properties":{"cartodb_id":217,"place":24,"id":217,"name":"Puerta de Arganda","line":"L9","lat":40.401312382,"lng":-3.5959828585}},{"type":"Feature","geometry":{"type":"Point","coordinates":[-3.447572,40.303209]},"properties":{"cartodb_id":222,"place":29,"id":222,"name":"Arganda del Rey","line":"L9","lat":40.3036647904,"lng":-3.4475260657}},{"type":"Feature","geometry":{"type":"Point","coordinates":[-3.690677,40.451576]},"properties":{"cartodb_id":239,"place":17,"id":239,"name":"Santiago Bernabéu","line":"L10","lat":40.4515802048,"lng":-3.6903820687}},{"type":"Feature","geometry":{"type":"Point","coordinates":[-3.685505,40.480504]},"properties":{"cartodb_id":235,"place":13,"id":235,"name":"Begoña","line":"L10","lat":40.480408856,"lng":-3.6858519004}},{"type":"Feature","geometry":{"type":"Point","coordinates":[-3.693295,40.494914]},"properties":{"cartodb_id":234,"place":12,"id":234,"name":"Fuencarral","line":"L10","lat":40.4950788063,"lng":-3.6928338396}},{"type":"Feature","geometry":{"type":"Point","coordinates":[-3.694904,40.501082]},"properties":{"cartodb_id":233,"place":11,"id":233,"name":"Tres Olivos","line":"L10","lat":40.5011996113,"lng":-3.6952099494}},{"type":"Feature","geometry":{"type":"Point","coordinates":[-3.695183,40.50583]},"properties":{"cartodb_id":232,"place":10,"id":232,"name":"Montecarmelo","line":"L10","lat":40.5052503156,"lng":-3.6957592776}},{"type":"Feature","geometry":{"type":"Point","coordinates":[-3.662803,40.515553]},"properties":{"cartodb_id":230,"place":8,"id":230,"name":"Ronda de la Comunicación","line":"L10","lat":40.5155341582,"lng":-3.6627782604}},{"type":"Feature","geometry":{"type":"Point","coordinates":[-3.658866,40.527762]},"properties":{"cartodb_id":229,"place":7,"id":229,"name":"La Granja","line":"L10","lat":40.5275939332,"lng":-3.658599532}},{"type":"Feature","geometry":{"type":"Point","coordinates":[-3.635509,40.532728]},"properties":{"cartodb_id":228,"place":6,"id":228,"name":"La Moraleja","line":"L10","lat":40.5319480654,"lng":-3.6355710044}},{"type":"Feature","geometry":{"type":"Point","coordinates":[-3.64701,40.550551]},"properties":{"cartodb_id":226,"place":4,"id":226,"name":"Manuel de Falla","line":"L10","lat":40.5504795886,"lng":-3.6468833869}},{"type":"Feature","geometry":{"type":"Point","coordinates":[-3.635144,40.554366]},"properties":{"cartodb_id":225,"place":3,"id":225,"name":"Baunatal","line":"L10","lat":40.5544185851,"lng":-3.6351338261}},{"type":"Feature","geometry":{"type":"Point","coordinates":[-3.623235,40.550763]},"properties":{"cartodb_id":224,"place":2,"id":224,"name":"Reyes Católicos","line":"L10","lat":40.5503744396,"lng":-3.6234033337}},{"type":"Feature","geometry":{"type":"Point","coordinates":[-3.735638,40.416409]},"properties":{"cartodb_id":246,"place":24,"id":246,"name":"Lago","line":"L10","lat":40.4164091777,"lng":-3.7356377171}},{"type":"Feature","geometry":{"type":"Point","coordinates":[-3.753117,40.407855]},"properties":{"cartodb_id":247,"place":25,"id":247,"name":"Batán","line":"L10","lat":40.4078551777,"lng":-3.7531165834}},{"type":"Feature","geometry":{"type":"Point","coordinates":[-3.774618,40.396974]},"properties":{"cartodb_id":249,"place":27,"id":249,"name":"Colonia Jardín","line":"L10","lat":40.396974348,"lng":-3.7746180161}},{"type":"Feature","geometry":{"type":"Point","coordinates":[-3.812116,40.345239]},"properties":{"cartodb_id":253,"place":31,"id":253,"name":"Puerta del Sur","line":"L10","lat":40.345239196,"lng":-3.8121162332}},{"type":"Feature","geometry":{"type":"Point","coordinates":[-3.727911,40.380827]},"properties":{"cartodb_id":255,"place":2,"id":255,"name":"Abrantes","line":"L11","lat":40.3808272388,"lng":-3.7279111589}},{"type":"Feature","geometry":{"type":"Point","coordinates":[-3.734172,40.37586]},"properties":{"cartodb_id":256,"place":3,"id":256,"name":"Pan Bendito","line":"L11","lat":40.3758596881,"lng":-3.7341716784}},{"type":"Feature","geometry":{"type":"Point","coordinates":[-3.739106,40.373594]},"properties":{"cartodb_id":257,"place":4,"id":257,"name":"San Francisco","line":"L11","lat":40.3735939993,"lng":-3.7391062228}},{"type":"Feature","geometry":{"type":"Point","coordinates":[-3.751916,40.371998]},"properties":{"cartodb_id":258,"place":5,"id":258,"name":"Carabanchel Alto    ","line":"L11","lat":40.3719978896,"lng":-3.7519162637}},{"type":"Feature","geometry":{"type":"Point","coordinates":[-3.756906,40.364218]},"properties":{"cartodb_id":259,"place":6,"id":259,"name":"La Peseta","line":"L11","lat":40.3642175126,"lng":-3.756906024}},{"type":"Feature","geometry":{"type":"Point","coordinates":[-3.777834,40.357952]},"properties":{"cartodb_id":260,"place":7,"id":260,"name":"La Fortuna","line":"L11","lat":40.3579524594,"lng":-3.7778337797}},{"type":"Feature","geometry":{"type":"Point","coordinates":[-3.821201,40.34968]},"properties":{"cartodb_id":262,"place":2,"id":262,"name":"Parque Lisboa","line":"L12","lat":40.3496796038,"lng":-3.821201089}},{"type":"Feature","geometry":{"type":"Point","coordinates":[-3.83178,40.350081]},"properties":{"cartodb_id":263,"place":3,"id":263,"name":"Alcorcón Central","line":"L12","lat":40.3500814877,"lng":-3.8317801693}},{"type":"Feature","geometry":{"type":"Point","coordinates":[-3.849343,40.345891]},"properties":{"cartodb_id":264,"place":4,"id":264,"name":"Parque Oeste","line":"L12","lat":40.3458907398,"lng":-3.8493434114}},{"type":"Feature","geometry":{"type":"Point","coordinates":[-3.863545,40.328497]},"properties":{"cartodb_id":266,"place":6,"id":266,"name":"Móstoles Central","line":"L12","lat":40.3284970958,"lng":-3.863545433}},{"type":"Feature","geometry":{"type":"Point","coordinates":[-3.759428,40.326597]},"properties":{"cartodb_id":285,"place":25,"id":285,"name":"Casa del Reloj","line":"L12","lat":40.3265968511,"lng":-3.7594284169}},{"type":"Feature","geometry":{"type":"Point","coordinates":[-3.771545,40.328976]},"properties":{"cartodb_id":287,"place":27,"id":287,"name":"Leganés Central","line":"L12","lat":40.3289761704,"lng":-3.7715445639}},{"type":"Feature","geometry":{"type":"Point","coordinates":[-3.775876,40.336155]},"properties":{"cartodb_id":288,"place":28,"id":288,"name":"San Nicasio","line":"L12","lat":40.3361545143,"lng":-3.7758763366}},{"type":"Feature","geometry":{"type":"Point","coordinates":[-3.666842,40.480133]},"properties":{"cartodb_id":289,"place":1,"id":289,"name":"Pinar de Chamartín","line":"ML1","lat":40.4801327133,"lng":-3.6668424359}},{"type":"Feature","geometry":{"type":"Point","coordinates":[-3.663255,40.484811]},"properties":{"cartodb_id":290,"place":2,"id":290,"name":"Fuente de la Mora","line":"ML1","lat":40.4848109867,"lng":-3.6632546815}},{"type":"Feature","geometry":{"type":"Point","coordinates":[-3.66099,40.487337]},"properties":{"cartodb_id":291,"place":3,"id":291,"name":"Virgen del Cortijo","line":"ML1","lat":40.4873374549,"lng":-3.6609904856}},{"type":"Feature","geometry":{"type":"Point","coordinates":[-3.653539,40.485452]},"properties":{"cartodb_id":292,"place":4,"id":292,"name":"Antonio Saura","line":"ML1","lat":40.4854519186,"lng":-3.6535386265}},{"type":"Feature","geometry":{"type":"Point","coordinates":[-3.651367,40.489041]},"properties":{"cartodb_id":293,"place":5,"id":293,"name":"Álvarez de Villaamil","line":"ML1","lat":40.4890407316,"lng":-3.6513669114}},{"type":"Feature","geometry":{"type":"Point","coordinates":[-3.655849,40.493673]},"properties":{"cartodb_id":294,"place":6,"id":294,"name":"Blasco Ibáñez","line":"ML1","lat":40.4936730082,"lng":-3.6558486649}},{"type":"Feature","geometry":{"type":"Point","coordinates":[-3.658892,40.49716]},"properties":{"cartodb_id":295,"place":7,"id":295,"name":"María Tudor","line":"ML1","lat":40.4971601735,"lng":-3.6588918859}},{"type":"Feature","geometry":{"type":"Point","coordinates":[-3.665075,40.505431]},"properties":{"cartodb_id":296,"place":8,"id":296,"name":"Palas de Rey","line":"ML1","lat":40.5054309851,"lng":-3.6650747018}},{"type":"Feature","geometry":{"type":"Point","coordinates":[-3.669328,40.508235]},"properties":{"cartodb_id":297,"place":9,"id":297,"name":"Las Tablas","line":"ML1","lat":40.5082352281,"lng":-3.6693278685}},{"type":"Feature","geometry":{"type":"Point","coordinates":[-3.774571,40.396975]},"properties":{"cartodb_id":298,"place":1,"id":298,"name":"Colonia Jardín","line":"ML2","lat":40.3969746637,"lng":-3.7745708858}},{"type":"Feature","geometry":{"type":"Point","coordinates":[-3.781219,40.40229]},"properties":{"cartodb_id":299,"place":2,"id":299,"name":"Prado de la Vega","line":"ML2","lat":40.4022903168,"lng":-3.7812192922}},{"type":"Feature","geometry":{"type":"Point","coordinates":[-3.710933,40.423592]},"properties":{"cartodb_id":244,"place":22,"id":244,"name":"Plaza de España","line":"L10","lat":40.42408481,"lng":-3.7097047112}},{"type":"Feature","geometry":{"type":"Point","coordinates":[-3.761863,40.402908]},"properties":{"cartodb_id":248,"place":26,"id":248,"name":"Casa de Campo","line":"L10","lat":40.4031998121,"lng":-3.7610192809}},{"type":"Feature","geometry":{"type":"Point","coordinates":[-3.812106,40.345252]},"properties":{"cartodb_id":261,"place":1,"id":261,"name":"Puerta del Sur","line":"L12","lat":40.3454257255,"lng":-3.8124952537}},{"type":"Feature","geometry":{"type":"Point","coordinates":[-3.807321,40.349897]},"properties":{"cartodb_id":252,"place":30,"id":252,"name":"Joaquín Vilumbrales","line":"L10","lat":40.349841216,"lng":-3.8072022786}},{"type":"Feature","geometry":{"type":"Point","coordinates":[-3.792279,40.378018]},"properties":{"cartodb_id":251,"place":29,"id":251,"name":"Cuatro Vientos","line":"L10","lat":40.3776975769,"lng":-3.7915254798}},{"type":"Feature","geometry":{"type":"Point","coordinates":[-3.784565,40.384]},"properties":{"cartodb_id":250,"place":28,"id":250,"name":"Aviación Española","line":"L10","lat":40.3836322713,"lng":-3.7839254187}},{"type":"Feature","geometry":{"type":"Point","coordinates":[-3.701277,40.426287]},"properties":{"cartodb_id":243,"place":21,"id":243,"name":"Tribunal","line":"L10","lat":40.4259871899,"lng":-3.7020857148}},{"type":"Feature","geometry":{"type":"Point","coordinates":[-3.71767,40.385439]},"properties":{"cartodb_id":254,"place":1,"id":254,"name":"Plaza Elíptica","line":"L11","lat":40.3845993589,"lng":-3.71825572}},{"type":"Feature","geometry":{"type":"Point","coordinates":[-3.873357,40.334981]},"properties":{"cartodb_id":265,"place":5,"id":265,"name":"Universidad Rey J. Carlos","line":"L12","lat":40.3351170091,"lng":-3.8721885474}},{"type":"Feature","geometry":{"type":"Point","coordinates":[-3.865128,40.321739]},"properties":{"cartodb_id":267,"place":7,"id":267,"name":"Pradillo","line":"L12","lat":40.3216761168,"lng":-3.8648944899}},{"type":"Feature","geometry":{"type":"Point","coordinates":[-3.874376,40.316266]},"properties":{"cartodb_id":268,"place":8,"id":268,"name":"Hospital de Móstoles","line":"L12","lat":40.3165211218,"lng":-3.8747150286}},{"type":"Feature","geometry":{"type":"Point","coordinates":[-3.863883,40.309272]},"properties":{"cartodb_id":269,"place":9,"id":269,"name":"Manuela Malasaña","line":"L12","lat":40.3090247558,"lng":-3.8640269902}},{"type":"Feature","geometry":{"type":"Point","coordinates":[-3.837758,40.296687]},"properties":{"cartodb_id":270,"place":10,"id":270,"name":"Loranca","line":"L12","lat":40.2968038153,"lng":-3.8376919076}},{"type":"Feature","geometry":{"type":"Point","coordinates":[-3.816472,40.285648]},"properties":{"cartodb_id":271,"place":11,"id":271,"name":"Hospital de Fuenlabrada","line":"L12","lat":40.2857483935,"lng":-3.8164270664}},{"type":"Feature","geometry":{"type":"Point","coordinates":[-3.806312,40.285026]},"properties":{"cartodb_id":272,"place":12,"id":272,"name":"Parque Europa","line":"L12","lat":40.2851705633,"lng":-3.8063265864}},{"type":"Feature","geometry":{"type":"Point","coordinates":[-3.798802,40.282718]},"properties":{"cartodb_id":273,"place":13,"id":273,"name":"Fuenlabrada Central","line":"L12","lat":40.2826724094,"lng":-3.7989093691}},{"type":"Feature","geometry":{"type":"Point","coordinates":[-3.786925,40.286769]},"properties":{"cartodb_id":274,"place":14,"id":274,"name":"Parque de los Estados","line":"L12","lat":40.2868353254,"lng":-3.7869823083}},{"type":"Feature","geometry":{"type":"Point","coordinates":[-3.756831,40.288799]},"properties":{"cartodb_id":275,"place":15,"id":275,"name":"Arroyo Culebro","line":"L12","lat":40.2887392474,"lng":-3.7568280497}},{"type":"Feature","geometry":{"type":"Point","coordinates":[-3.745641,40.293169]},"properties":{"cartodb_id":276,"place":16,"id":276,"name":"Conservatorio","line":"L12","lat":40.2932435802,"lng":-3.7457717182}},{"type":"Feature","geometry":{"type":"Point","coordinates":[-3.736864,40.300771]},"properties":{"cartodb_id":277,"place":17,"id":277,"name":"Alonso de Mendoza","line":"L12","lat":40.3008067501,"lng":-3.7366415036}},{"type":"Feature","geometry":{"type":"Point","coordinates":[-3.734021,40.309975]},"properties":{"cartodb_id":278,"place":18,"id":278,"name":"Getafe Central","line":"L12","lat":40.3099226207,"lng":-3.7340338203}},{"type":"Feature","geometry":{"type":"Point","coordinates":[-3.722402,40.311865]},"properties":{"cartodb_id":279,"place":19,"id":279,"name":"Juan de la Cierva","line":"L12","lat":40.3117986292,"lng":-3.7222501498}},{"type":"Feature","geometry":{"type":"Point","coordinates":[-3.709989,40.318631]},"properties":{"cartodb_id":280,"place":20,"id":280,"name":"El Casar","line":"L12","lat":40.3186232184,"lng":-3.7098585802}},{"type":"Feature","geometry":{"type":"Point","coordinates":[-3.729901,40.328896]},"properties":{"cartodb_id":282,"place":22,"id":282,"name":"El Bercial","line":"L12","lat":40.3290679142,"lng":-3.7296384769}},{"type":"Feature","geometry":{"type":"Point","coordinates":[-3.740137,40.336494]},"properties":{"cartodb_id":283,"place":23,"id":283,"name":"El Carrascal","line":"L12","lat":40.3366316591,"lng":-3.7401861342}},{"type":"Feature","geometry":{"type":"Point","coordinates":[-3.752636,40.334654]},"properties":{"cartodb_id":284,"place":24,"id":284,"name":"Julián Besteiro","line":"L12","lat":40.3347402712,"lng":-3.7526680249}},{"type":"Feature","geometry":{"type":"Point","coordinates":[-3.767903,40.322426]},"properties":{"cartodb_id":286,"place":26,"id":286,"name":"Hospital Severo Ochoa","line":"L12","lat":40.3217655451,"lng":-3.7679784305}},{"type":"Feature","geometry":{"type":"Point","coordinates":[-3.784411,40.407206]},"properties":{"cartodb_id":300,"place":3,"id":300,"name":"Colonia de los Ángeles","line":"ML2","lat":40.4072056586,"lng":-3.7844110021}},{"type":"Feature","geometry":{"type":"Point","coordinates":[-3.78749,40.410464]},"properties":{"cartodb_id":301,"place":4,"id":301,"name":"Prado del Rey","line":"ML2","lat":40.4104640174,"lng":-3.787489577}},{"type":"Feature","geometry":{"type":"Point","coordinates":[-3.792532,40.415357]},"properties":{"cartodb_id":302,"place":5,"id":302,"name":"Somosaguas Sur","line":"ML2","lat":40.4153574938,"lng":-3.7925323903}},{"type":"Feature","geometry":{"type":"Point","coordinates":[-3.798744,40.41936]},"properties":{"cartodb_id":303,"place":6,"id":303,"name":"Somosaguas Centro","line":"ML2","lat":40.4193597914,"lng":-3.7987441516}},{"type":"Feature","geometry":{"type":"Point","coordinates":[-3.804482,40.423068]},"properties":{"cartodb_id":304,"place":7,"id":304,"name":"Pozuelo Oeste","line":"ML2","lat":40.423067755,"lng":-3.8044816224}},{"type":"Feature","geometry":{"type":"Point","coordinates":[-3.807554,40.430578]},"properties":{"cartodb_id":305,"place":8,"id":305,"name":"Bélgica","line":"ML2","lat":40.4305778538,"lng":-3.8075538119}},{"type":"Feature","geometry":{"type":"Point","coordinates":[-3.801623,40.432529]},"properties":{"cartodb_id":306,"place":9,"id":306,"name":"Dos Castillas","line":"ML2","lat":40.4325290335,"lng":-3.8016233718}},{"type":"Feature","geometry":{"type":"Point","coordinates":[-3.795255,40.433375]},"properties":{"cartodb_id":307,"place":10,"id":307,"name":"Campus de Somosaguas","line":"ML2","lat":40.4333748166,"lng":-3.7952551244}},{"type":"Feature","geometry":{"type":"Point","coordinates":[-3.793061,40.4393]},"properties":{"cartodb_id":308,"place":11,"id":308,"name":"Avenida de Europa","line":"ML2","lat":40.4392997815,"lng":-3.7930610948}},{"type":"Feature","geometry":{"type":"Point","coordinates":[-3.791204,40.444862]},"properties":{"cartodb_id":309,"place":12,"id":309,"name":"Berna","line":"ML2","lat":40.4448620326,"lng":-3.7912043998}},{"type":"Feature","geometry":{"type":"Point","coordinates":[-3.785915,40.448322]},"properties":{"cartodb_id":310,"place":13,"id":310,"name":"Estación de Aravaca","line":"ML2","lat":40.4483215248,"lng":-3.7859147893}},{"type":"Feature","geometry":{"type":"Point","coordinates":[-3.774512,40.396975]},"properties":{"cartodb_id":311,"place":1,"id":311,"name":"Colonia Jardín","line":"ML3","lat":40.3969750584,"lng":-3.7745119729}},{"type":"Feature","geometry":{"type":"Point","coordinates":[-3.783999,40.397082]},"properties":{"cartodb_id":312,"place":2,"id":312,"name":"Ciudad de la Imagen","line":"ML3","lat":40.3970822944,"lng":-3.7839989134}},{"type":"Feature","geometry":{"type":"Point","coordinates":[-3.78994,40.395249]},"properties":{"cartodb_id":313,"place":3,"id":313,"name":"José Isbert","line":"ML3","lat":40.3952490593,"lng":-3.7899399333}},{"type":"Feature","geometry":{"type":"Point","coordinates":[-3.795576,40.394544]},"properties":{"cartodb_id":314,"place":4,"id":314,"name":"Ciudad del Cine","line":"ML3","lat":40.3945437502,"lng":-3.7955757687}},{"type":"Feature","geometry":{"type":"Point","coordinates":[-3.803863,40.396874]},"properties":{"cartodb_id":315,"place":5,"id":315,"name":"Cocheras","line":"ML3","lat":40.3968738268,"lng":-3.8038633913}},{"type":"Feature","geometry":{"type":"Point","coordinates":[-3.816753,40.398711]},"properties":{"cartodb_id":316,"place":6,"id":316,"name":"Retamares","line":"ML3","lat":40.3987114295,"lng":-3.8167531164}},{"type":"Feature","geometry":{"type":"Point","coordinates":[-3.835809,40.397918]},"properties":{"cartodb_id":317,"place":7,"id":317,"name":"Montepríncipe","line":"ML3","lat":40.3979175911,"lng":-3.8358094144}},{"type":"Feature","geometry":{"type":"Point","coordinates":[-3.83812,40.394198]},"properties":{"cartodb_id":318,"place":8,"id":318,"name":"Ventorro del Cano","line":"ML3","lat":40.394198155,"lng":-3.8381200142}},{"type":"Feature","geometry":{"type":"Point","coordinates":[-3.847745,40.395011]},"properties":{"cartodb_id":319,"place":9,"id":319,"name":"Prado del Espino","line":"ML3","lat":40.3950108726,"lng":-3.8477451022}},{"type":"Feature","geometry":{"type":"Point","coordinates":[-3.864398,40.395284]},"properties":{"cartodb_id":320,"place":10,"id":320,"name":"Cantabria","line":"ML3","lat":40.3952839755,"lng":-3.864398108}},{"type":"Feature","geometry":{"type":"Point","coordinates":[-3.879391,40.401955]},"properties":{"cartodb_id":321,"place":11,"id":321,"name":"Ferial de Boadilla","line":"ML3","lat":40.4019547072,"lng":-3.8793905681}},{"type":"Feature","geometry":{"type":"Point","coordinates":[-3.880047,40.40713]},"properties":{"cartodb_id":322,"place":12,"id":322,"name":"Boadilla Centro","line":"ML3","lat":40.4071298858,"lng":-3.8800471837}},{"type":"Feature","geometry":{"type":"Point","coordinates":[-3.885767,40.405636]},"properties":{"cartodb_id":323,"place":13,"id":323,"name":"Nuevo Mundo","line":"ML3","lat":40.4056357594,"lng":-3.8857669857}},{"type":"Feature","geometry":{"type":"Point","coordinates":[-3.892643,40.405123]},"properties":{"cartodb_id":324,"place":14,"id":324,"name":"Siglo XXI","line":"ML3","lat":40.405123422,"lng":-3.8926426169}},{"type":"Feature","geometry":{"type":"Point","coordinates":[-3.897415,40.405942]},"properties":{"cartodb_id":325,"place":15,"id":325,"name":"Infante Don Luís","line":"ML3","lat":40.4059423359,"lng":-3.8974145684}},{"type":"Feature","geometry":{"type":"Point","coordinates":[-3.903791,40.407767]},"properties":{"cartodb_id":326,"place":16,"id":326,"name":"Puerta de Boadilla","line":"ML3","lat":40.4077665361,"lng":-3.9037910739}},{"type":"Feature","geometry":{"type":"Point","coordinates":[-3.547281,40.366769]},"properties":{"cartodb_id":220,"place":25,"id":220,"name":"Rivas-Urbanizaciones","line":"L9","lat":40.3667688721,"lng":-3.5472814791}},{"type":"Feature","geometry":{"type":"Point","coordinates":[-3.520603,40.328369]},"properties":{"cartodb_id":218,"place":27,"id":218,"name":"Rivas Vaciamadrid","line":"L9","lat":40.3283687074,"lng":-3.5206027411}},{"type":"Feature","geometry":{"type":"Point","coordinates":[-3.591961,40.360051]},"properties":{"cartodb_id":33,"place":33,"id":33,"name":"Valdecarros","line":"L1","lat":40.3600650314,"lng":-3.5931698367}},{"type":"Feature","geometry":{"type":"Point","coordinates":[-3.698788,40.43496]},"properties":{"cartodb_id":11,"place":11,"id":11,"name":"Iglesia","line":"L1","lat":40.4349159114,"lng":-3.6989834534}},{"type":"Feature","geometry":{"type":"Point","coordinates":[-3.689132,40.466703]},"properties":{"cartodb_id":199,"place":6,"id":199,"name":"Plaza de Castilla","line":"L9","lat":40.4668939048,"lng":-3.6891351606}},{"type":"Feature","geometry":{"type":"Point","coordinates":[-3.663254,40.430812]},"properties":{"cartodb_id":105,"place":10,"id":105,"name":"Ventas","line":"L5","lat":40.4308811325,"lng":-3.6636087459}},{"type":"Feature","geometry":{"type":"Point","coordinates":[-3.694968,40.419018]},"properties":{"cartodb_id":44,"place":11,"id":44,"name":"Banco de España","line":"L2","lat":40.4192193733,"lng":-3.6949664946}},{"type":"Feature","geometry":{"type":"Point","coordinates":[-3.709731,40.341311]},"properties":{"cartodb_id":71,"place":18,"id":71,"name":"Villaverde Alto","line":"L3","lat":40.3412231389,"lng":-3.7119909934}},{"type":"Feature","geometry":{"type":"Point","coordinates":[-3.702575,40.405106]},"properties":{"cartodb_id":61,"place":8,"id":61,"name":"Embajadores","line":"L3","lat":40.4051186197,"lng":-3.7026819925}},{"type":"Feature","geometry":{"type":"Point","coordinates":[-3.718915,40.434977]},"properties":{"cartodb_id":150,"place":23,"id":150,"name":"Moncloa","line":"L6","lat":40.4349615136,"lng":-3.7194515984}},{"type":"Feature","geometry":{"type":"Point","coordinates":[-3.695719,40.427757]},"properties":{"cartodb_id":242,"place":20,"id":242,"name":"Alonso Martínez","line":"L10","lat":40.4285258379,"lng":-3.6964415982}},{"type":"Feature","geometry":{"type":"Point","coordinates":[-3.718786,40.420692]},"properties":{"cartodb_id":152,"place":25,"id":152,"name":"Príncipe Pío","line":"L6","lat":40.4210641408,"lng":-3.7203290504}},{"type":"Feature","geometry":{"type":"Point","coordinates":[-3.718776,40.420692]},"properties":{"cartodb_id":245,"place":23,"id":245,"name":"Príncipe Pío","line":"L10","lat":40.4210281071,"lng":-3.720328666}},{"type":"Feature","geometry":{"type":"Point","coordinates":[-3.682662,40.474554]},"properties":{"cartodb_id":236,"place":14,"id":236,"name":"Chamartín","line":"L10","lat":40.4720948576,"lng":-3.6825940079}},{"type":"Feature","geometry":{"type":"Point","coordinates":[-3.718271,40.324119]},"properties":{"cartodb_id":281,"place":21,"id":281,"name":"Los Espartales","line":"L12","lat":40.3242204658,"lng":-3.7182038818}}]}